{
  "points": [
    { "name": "Сумский РВК", "lat": 50.907, "lon": 34.799, "count": 13, "percent": 24.1 },
    { "name": "Сумский ГВК", "lat": 50.907, "lon": 34.799, "count": 9, "percent": 16.7 },
    { "name": "Ладыжинский РВК", "lat": 49.091, "lon": 28.056, "count": 5, "percent": 9.3 },
    { "name": "Мариупольский ГВК", "lat": 47.095, "lon": 37.541, "count": 3, "percent": 5.6 },
    { "name": "Сарненский РВК", "lat": 51.537, "lon": 26.263, "count": 3, "percent": 5.6 },
    { "name": "Октябрьский РВК", "lat": 48.464, "lon": 35.046, "count": 2, "percent": 3.7 },
    { "name": "Краснодарский ГВК", "lat": 45.035, "lon": 38.975, "count": 2, "percent": 3.7 },
    { "name": "Ивановский ГВК", "lat": 56.999, "lon": 40.972, "count": 2, "percent": 3.7 },
    { "name": "Буденновский РВК", "lat": 51.659, "lon": 41.758, "count": 2, "percent": 3.7 },
    { "name": "Приморско-Ахтарский РВК", "lat": 46.358, "lon": 38.102, "count": 2, "percent": 3.7 }
  ]
}
